[
    {"location": "Mumbai", "latnlon": {"lat": 19.076, "lon": 72.8777}},
    {"location": "Delhi", "latnlon": {"lat": 28.7041, "lon": 77.1025}},
    {"location": "Bangalore", "latnlon": {"lat": 12.9716, "lon": 77.5946}},
    {"location": "Kolkata", "latnlon": {"lat": 22.5726, "lon": 88.3639}},
    {"location": "Chennai", "latnlon": {"lat": 13.0827, "lon": 80.2707}},
    {"location": "Hyderabad", "latnlon": {"lat": 17.385, "lon": 78.4867}},
    {"location": "Ahmedabad", "latnlon": {"lat": 23.0225, "lon": 72.5714}},
    {"location": "Pune", "latnlon": {"lat": 18.5204, "lon": 73.8567}},
    {"location": "Surat", "latnlon": {"lat": 21.1702, "lon": 72.8311}},
    {"location": "Jaipur", "latnlon": {"lat": 26.9124, "lon": 75.7873}},
    {"location": "Lucknow", "latnlon": {"lat": 26.8467, "lon": 80.9462}},
    {"location": "Kanpur", "latnlon": {"lat": 26.4499, "lon": 80.3319}},
    {"location": "Nagpur", "latnlon": {"lat": 21.1458, "lon": 79.0882}},
    {"location": "Visakhapatnam", "latnlon": {"lat": 17.6868, "lon": 83.2185}},
    {"location": "Indore", "latnlon": {"lat": 22.7196, "lon": 75.8577}},
    {"location": "Thane", "latnlon": {"lat": 19.2183, "lon": 72.9781}},
    {"location": "Bhopal", "latnlon": {"lat": 23.2599, "lon": 77.4126}},
    {"location": "Patna", "latnlon": {"lat": 25.5941, "lon": 85.1376}},
    {"location": "Vadodara", "latnlon": {"lat": 22.3072, "lon": 73.1812}},
    {"location": "Ludhiana", "latnlon": {"lat": 30.901, "lon": 75.8573}},
    {"location": "Agra", "latnlon": {"lat": 27.1767, "lon": 78.0081}},
    {"location": "Allahabad", "latnlon": {"lat": 25.4358, "lon": 81.8463}},
    {"location": "Amritsar", "latnlon": {"lat": 31.634, "lon": 74.8723}},
    {"location": "Aurangabad", "latnlon": {"lat": 19.8762, "lon": 75.3433}},
    {"location": "Bhubaneswar", "latnlon": {"lat": 20.2961, "lon": 85.8245}},
    {"location": "Chandigarh", "latnlon": {"lat": 30.7333, "lon": 76.7794}},
    {"location": "Coimbatore", "latnlon": {"lat": 11.0168, "lon": 76.9558}},
    {"location": "Ghaziabad", "latnlon": {"lat": 28.6692, "lon": 77.4538}},
    {"location": "Guwahati", "latnlon": {"lat": 26.1445, "lon": 91.7362}},
    {"location": "Kochi", "latnlon": {"lat": 9.9312, "lon": 76.2673}},
    {"location": "Nashik", "latnlon": {"lat": 19.9975, "lon": 73.7898}},
    {"location": "Rajkot", "latnlon": {"lat": 22.3039, "lon": 70.8022}},
    {"location": "Srinagar", "latnlon": {"lat": 34.0836, "lon": 74.7973}},
    {"location": "Salem", "latnlon": {"lat": 11.6643, "lon": 78.146}},
    {"location": "Varanasi", "latnlon": {"lat": 25.3176, "lon": 82.9739}},
    {"location": "Vijayawada", "latnlon": {"lat": 16.5062, "lon": 80.648}},
    {"location": "Madurai", "latnlon": {"lat": 9.9252, "lon": 78.1198}},
    {"location": "Ranchi", "latnlon": {"lat": 23.3441, "lon": 85.3096}},
    {"location": "Jodhpur", "latnlon": {"lat": 26.2389, "lon": 73.0243}},
    {"location": "Raipur", "latnlon": {"lat": 21.2514, "lon": 81.6296}},
    {"location": "Kota", "latnlon": {"lat": 25.2138, "lon": 75.8648}},
    {"location": "Gurgaon", "latnlon": {"lat": 28.4595, "lon": 77.0266}},
    {"location": "Bareilly", "latnlon": {"lat": 28.367, "lon": 79.4304}},
    {"location": "Moradabad", "latnlon": {"lat": 28.8389, "lon": 78.7768}},
    {"location": "Aligarh", "latnlon": {"lat": 27.8974, "lon": 78.088}},
    {"location": "Jalandhar", "latnlon": {"lat": 31.326, "lon": 75.5762}},
    {"location": "Tiruchirappalli", "latnlon": {"lat": 10.7905, "lon": 78.7047}},
    {"location": "Bikaner", "latnlon": {"lat": 28.0229, "lon": 73.3119}},
    {"location": "Kakinada", "latnlon": {"lat": 16.9891, "lon": 82.2475}},
    {"location": "Nizamabad", "latnlon": {"lat": 18.6737, "lon": 78.1008}},
    {"location": "Ajmer", "latnlon": {"lat": 26.4499, "lon": 74.6399}},
    {"location": "Mangalore", "latnlon": {"lat": 12.9141, "lon": 74.856}},
    {"location": "Dehradun", "latnlon": {"lat": 30.3165, "lon": 78.0322}},
    {"location": "Rourkela", "latnlon": {"lat": 22.2604, "lon": 84.8536}},
    {"location": "Nanded", "latnlon": {"lat": 19.1383, "lon": 77.321}},
    {"location": "Ajmer", "latnlon": {"lat": 26.4499, "lon": 74.6399}},
    {"location": "Amravati", "latnlon": {"lat": 20.932, "lon": 77.7523}},
    {"location": "Alwar", "latnlon": {"lat": 27.553, "lon": 76.6346}},
    {"location": "Bhilai", "latnlon": {"lat": 21.1909, "lon": 81.2849}},
    {"location": "Cuttack", "latnlon": {"lat": 20.4625, "lon": 85.8828}}    
]
